{
  "_comment": "Top Indian cities for Fever Watch (generated by scripts/gen_cities.py). Detected location snaps to the NEAREST centroid here; the picked city is a changeable default, never a hard lock. Coordinates are ~0.05 deg approximations; QA against an authoritative gazetteer before launch.",
  "count": 119,
  "cities": [
    {
      "id": "mumbai",
      "name": "Mumbai",
      "state": "Maharashtra",
      "lat": 19.076,
      "lon": 72.8777,
      "climate": "tropical_wet",
      "aliases": [
        "bombay"
      ]
    },
    {
      "id": "delhi",
      "name": "Delhi",
      "state": "Delhi",
      "lat": 28.7041,
      "lon": 77.1025,
      "climate": "semi_arid"
    },
    {
      "id": "bengaluru",
      "name": "Bengaluru",
      "state": "Karnataka",
      "lat": 12.9716,
      "lon": 77.5946,
      "climate": "tropical_savanna",
      "aliases": [
        "bangalore"
      ]
    },
    {
      "id": "hyderabad",
      "name": "Hyderabad",
      "state": "Telangana",
      "lat": 17.385,
      "lon": 78.4867,
      "climate": "tropical_savanna"
    },
    {
      "id": "ahmedabad",
      "name": "Ahmedabad",
      "state": "Gujarat",
      "lat": 23.0225,
      "lon": 72.5714,
      "climate": "semi_arid"
    },
    {
      "id": "chennai",
      "name": "Chennai",
      "state": "Tamil Nadu",
      "lat": 13.0827,
      "lon": 80.2707,
      "climate": "tropical_wet",
      "aliases": [
        "madras"
      ]
    },
    {
      "id": "kolkata",
      "name": "Kolkata",
      "state": "West Bengal",
      "lat": 22.5726,
      "lon": 88.3639,
      "climate": "tropical_wet",
      "aliases": [
        "calcutta"
      ]
    },
    {
      "id": "surat",
      "name": "Surat",
      "state": "Gujarat",
      "lat": 21.1702,
      "lon": 72.8311,
      "climate": "tropical_savanna"
    },
    {
      "id": "pune",
      "name": "Pune",
      "state": "Maharashtra",
      "lat": 18.5204,
      "lon": 73.8567,
      "climate": "tropical_savanna"
    },
    {
      "id": "jaipur",
      "name": "Jaipur",
      "state": "Rajasthan",
      "lat": 26.9124,
      "lon": 75.7873,
      "climate": "semi_arid"
    },
    {
      "id": "lucknow",
      "name": "Lucknow",
      "state": "Uttar Pradesh",
      "lat": 26.8467,
      "lon": 80.9462,
      "climate": "humid_subtropical"
    },
    {
      "id": "kanpur",
      "name": "Kanpur",
      "state": "Uttar Pradesh",
      "lat": 26.4499,
      "lon": 80.3319,
      "climate": "humid_subtropical"
    },
    {
      "id": "nagpur",
      "name": "Nagpur",
      "state": "Maharashtra",
      "lat": 21.1458,
      "lon": 79.0882,
      "climate": "tropical_savanna"
    },
    {
      "id": "indore",
      "name": "Indore",
      "state": "Madhya Pradesh",
      "lat": 22.7196,
      "lon": 75.8577,
      "climate": "semi_arid"
    },
    {
      "id": "thane",
      "name": "Thane",
      "state": "Maharashtra",
      "lat": 19.2183,
      "lon": 72.9781,
      "climate": "tropical_wet"
    },
    {
      "id": "bhopal",
      "name": "Bhopal",
      "state": "Madhya Pradesh",
      "lat": 23.2599,
      "lon": 77.4126,
      "climate": "humid_subtropical"
    },
    {
      "id": "visakhapatnam",
      "name": "Visakhapatnam",
      "state": "Andhra Pradesh",
      "lat": 17.6868,
      "lon": 83.2185,
      "climate": "tropical_wet"
    },
    {
      "id": "patna",
      "name": "Patna",
      "state": "Bihar",
      "lat": 25.5941,
      "lon": 85.1376,
      "climate": "humid_subtropical"
    },
    {
      "id": "vadodara",
      "name": "Vadodara",
      "state": "Gujarat",
      "lat": 22.3072,
      "lon": 73.1812,
      "climate": "tropical_savanna",
      "aliases": [
        "baroda"
      ]
    },
    {
      "id": "ghaziabad",
      "name": "Ghaziabad",
      "state": "Uttar Pradesh",
      "lat": 28.6692,
      "lon": 77.4538,
      "climate": "semi_arid"
    },
    {
      "id": "ludhiana",
      "name": "Ludhiana",
      "state": "Punjab",
      "lat": 30.901,
      "lon": 75.8573,
      "climate": "semi_arid"
    },
    {
      "id": "agra",
      "name": "Agra",
      "state": "Uttar Pradesh",
      "lat": 27.1767,
      "lon": 78.0081,
      "climate": "semi_arid"
    },
    {
      "id": "nashik",
      "name": "Nashik",
      "state": "Maharashtra",
      "lat": 19.9975,
      "lon": 73.7898,
      "climate": "tropical_savanna"
    },
    {
      "id": "faridabad",
      "name": "Faridabad",
      "state": "Haryana",
      "lat": 28.4089,
      "lon": 77.3178,
      "climate": "semi_arid"
    },
    {
      "id": "meerut",
      "name": "Meerut",
      "state": "Uttar Pradesh",
      "lat": 28.9845,
      "lon": 77.7064,
      "climate": "humid_subtropical"
    },
    {
      "id": "rajkot",
      "name": "Rajkot",
      "state": "Gujarat",
      "lat": 22.3039,
      "lon": 70.8022,
      "climate": "semi_arid"
    },
    {
      "id": "varanasi",
      "name": "Varanasi",
      "state": "Uttar Pradesh",
      "lat": 25.3176,
      "lon": 82.9739,
      "climate": "humid_subtropical"
    },
    {
      "id": "srinagar",
      "name": "Srinagar",
      "state": "Jammu and Kashmir",
      "lat": 34.0837,
      "lon": 74.7973,
      "climate": "temperate"
    },
    {
      "id": "aurangabad",
      "name": "Aurangabad",
      "state": "Maharashtra",
      "lat": 19.8762,
      "lon": 75.3433,
      "climate": "tropical_savanna"
    },
    {
      "id": "dhanbad",
      "name": "Dhanbad",
      "state": "Jharkhand",
      "lat": 23.7957,
      "lon": 86.4304,
      "climate": "humid_subtropical"
    },
    {
      "id": "amritsar",
      "name": "Amritsar",
      "state": "Punjab",
      "lat": 31.634,
      "lon": 74.8723,
      "climate": "semi_arid"
    },
    {
      "id": "prayagraj",
      "name": "Prayagraj",
      "state": "Uttar Pradesh",
      "lat": 25.4358,
      "lon": 81.8463,
      "climate": "humid_subtropical",
      "aliases": [
        "allahabad"
      ]
    },
    {
      "id": "ranchi",
      "name": "Ranchi",
      "state": "Jharkhand",
      "lat": 23.3441,
      "lon": 85.3096,
      "climate": "humid_subtropical"
    },
    {
      "id": "howrah",
      "name": "Howrah",
      "state": "West Bengal",
      "lat": 22.5958,
      "lon": 88.2636,
      "climate": "tropical_wet"
    },
    {
      "id": "coimbatore",
      "name": "Coimbatore",
      "state": "Tamil Nadu",
      "lat": 11.0168,
      "lon": 76.9558,
      "climate": "tropical_savanna"
    },
    {
      "id": "jabalpur",
      "name": "Jabalpur",
      "state": "Madhya Pradesh",
      "lat": 23.1815,
      "lon": 79.9864,
      "climate": "humid_subtropical"
    },
    {
      "id": "gwalior",
      "name": "Gwalior",
      "state": "Madhya Pradesh",
      "lat": 26.2183,
      "lon": 78.1828,
      "climate": "semi_arid"
    },
    {
      "id": "vijayawada",
      "name": "Vijayawada",
      "state": "Andhra Pradesh",
      "lat": 16.5062,
      "lon": 80.648,
      "climate": "tropical_savanna"
    },
    {
      "id": "jodhpur",
      "name": "Jodhpur",
      "state": "Rajasthan",
      "lat": 26.2389,
      "lon": 73.0243,
      "climate": "semi_arid"
    },
    {
      "id": "madurai",
      "name": "Madurai",
      "state": "Tamil Nadu",
      "lat": 9.9252,
      "lon": 78.1198,
      "climate": "tropical_savanna"
    },
    {
      "id": "raipur",
      "name": "Raipur",
      "state": "Chhattisgarh",
      "lat": 21.2514,
      "lon": 81.6296,
      "climate": "tropical_savanna"
    },
    {
      "id": "kota",
      "name": "Kota",
      "state": "Rajasthan",
      "lat": 25.2138,
      "lon": 75.8648,
      "climate": "semi_arid"
    },
    {
      "id": "guwahati",
      "name": "Guwahati",
      "state": "Assam",
      "lat": 26.1445,
      "lon": 91.7362,
      "climate": "humid_subtropical"
    },
    {
      "id": "chandigarh",
      "name": "Chandigarh",
      "state": "Chandigarh",
      "lat": 30.7333,
      "lon": 76.7794,
      "climate": "humid_subtropical"
    },
    {
      "id": "solapur",
      "name": "Solapur",
      "state": "Maharashtra",
      "lat": 17.6599,
      "lon": 75.9064,
      "climate": "semi_arid"
    },
    {
      "id": "hubballi",
      "name": "Hubballi",
      "state": "Karnataka",
      "lat": 15.3647,
      "lon": 75.124,
      "climate": "tropical_savanna",
      "aliases": [
        "hubli",
        "dharwad"
      ]
    },
    {
      "id": "mysuru",
      "name": "Mysuru",
      "state": "Karnataka",
      "lat": 12.2958,
      "lon": 76.6394,
      "climate": "tropical_savanna",
      "aliases": [
        "mysore"
      ]
    },
    {
      "id": "tiruchirappalli",
      "name": "Tiruchirappalli",
      "state": "Tamil Nadu",
      "lat": 10.7905,
      "lon": 78.7047,
      "climate": "tropical_savanna"
    },
    {
      "id": "bareilly",
      "name": "Bareilly",
      "state": "Uttar Pradesh",
      "lat": 28.367,
      "lon": 79.4304,
      "climate": "humid_subtropical"
    },
    {
      "id": "aligarh",
      "name": "Aligarh",
      "state": "Uttar Pradesh",
      "lat": 27.8974,
      "lon": 78.088,
      "climate": "semi_arid"
    },
    {
      "id": "tiruppur",
      "name": "Tiruppur",
      "state": "Tamil Nadu",
      "lat": 11.1085,
      "lon": 77.3411,
      "climate": "tropical_savanna"
    },
    {
      "id": "gurugram",
      "name": "Gurugram",
      "state": "Haryana",
      "lat": 28.4595,
      "lon": 77.0266,
      "climate": "semi_arid",
      "aliases": [
        "gurgaon"
      ]
    },
    {
      "id": "moradabad",
      "name": "Moradabad",
      "state": "Uttar Pradesh",
      "lat": 28.8386,
      "lon": 78.7733,
      "climate": "humid_subtropical"
    },
    {
      "id": "jalandhar",
      "name": "Jalandhar",
      "state": "Punjab",
      "lat": 31.326,
      "lon": 75.5762,
      "climate": "semi_arid"
    },
    {
      "id": "bhubaneswar",
      "name": "Bhubaneswar",
      "state": "Odisha",
      "lat": 20.2961,
      "lon": 85.8245,
      "climate": "tropical_wet"
    },
    {
      "id": "salem",
      "name": "Salem",
      "state": "Tamil Nadu",
      "lat": 11.6643,
      "lon": 78.146,
      "climate": "tropical_savanna"
    },
    {
      "id": "warangal",
      "name": "Warangal",
      "state": "Telangana",
      "lat": 17.9689,
      "lon": 79.5941,
      "climate": "tropical_savanna"
    },
    {
      "id": "guntur",
      "name": "Guntur",
      "state": "Andhra Pradesh",
      "lat": 16.3067,
      "lon": 80.4365,
      "climate": "tropical_savanna"
    },
    {
      "id": "bhiwandi",
      "name": "Bhiwandi",
      "state": "Maharashtra",
      "lat": 19.2967,
      "lon": 73.0631,
      "climate": "tropical_wet"
    },
    {
      "id": "saharanpur",
      "name": "Saharanpur",
      "state": "Uttar Pradesh",
      "lat": 29.968,
      "lon": 77.5552,
      "climate": "humid_subtropical"
    },
    {
      "id": "gorakhpur",
      "name": "Gorakhpur",
      "state": "Uttar Pradesh",
      "lat": 26.7606,
      "lon": 83.3732,
      "climate": "humid_subtropical"
    },
    {
      "id": "bikaner",
      "name": "Bikaner",
      "state": "Rajasthan",
      "lat": 28.0229,
      "lon": 73.3119,
      "climate": "semi_arid"
    },
    {
      "id": "amravati",
      "name": "Amravati",
      "state": "Maharashtra",
      "lat": 20.9374,
      "lon": 77.7796,
      "climate": "tropical_savanna"
    },
    {
      "id": "noida",
      "name": "Noida",
      "state": "Uttar Pradesh",
      "lat": 28.5355,
      "lon": 77.391,
      "climate": "semi_arid"
    },
    {
      "id": "jamshedpur",
      "name": "Jamshedpur",
      "state": "Jharkhand",
      "lat": 22.8046,
      "lon": 86.2029,
      "climate": "humid_subtropical"
    },
    {
      "id": "bhilai",
      "name": "Bhilai",
      "state": "Chhattisgarh",
      "lat": 21.1938,
      "lon": 81.3509,
      "climate": "tropical_savanna"
    },
    {
      "id": "cuttack",
      "name": "Cuttack",
      "state": "Odisha",
      "lat": 20.4625,
      "lon": 85.883,
      "climate": "tropical_wet"
    },
    {
      "id": "firozabad",
      "name": "Firozabad",
      "state": "Uttar Pradesh",
      "lat": 27.1591,
      "lon": 78.3958,
      "climate": "semi_arid"
    },
    {
      "id": "kochi",
      "name": "Kochi",
      "state": "Kerala",
      "lat": 9.9312,
      "lon": 76.2673,
      "climate": "tropical_wet"
    },
    {
      "id": "nellore",
      "name": "Nellore",
      "state": "Andhra Pradesh",
      "lat": 14.4426,
      "lon": 79.9865,
      "climate": "tropical_savanna"
    },
    {
      "id": "bhavnagar",
      "name": "Bhavnagar",
      "state": "Gujarat",
      "lat": 21.7645,
      "lon": 72.1519,
      "climate": "semi_arid"
    },
    {
      "id": "dehradun",
      "name": "Dehradun",
      "state": "Uttarakhand",
      "lat": 30.3165,
      "lon": 78.0322,
      "climate": "humid_subtropical"
    },
    {
      "id": "durgapur",
      "name": "Durgapur",
      "state": "West Bengal",
      "lat": 23.5204,
      "lon": 87.3119,
      "climate": "humid_subtropical"
    },
    {
      "id": "asansol",
      "name": "Asansol",
      "state": "West Bengal",
      "lat": 23.6839,
      "lon": 86.9523,
      "climate": "humid_subtropical"
    },
    {
      "id": "rourkela",
      "name": "Rourkela",
      "state": "Odisha",
      "lat": 22.2604,
      "lon": 84.8536,
      "climate": "tropical_savanna"
    },
    {
      "id": "nanded",
      "name": "Nanded",
      "state": "Maharashtra",
      "lat": 19.1383,
      "lon": 77.321,
      "climate": "semi_arid"
    },
    {
      "id": "kolhapur",
      "name": "Kolhapur",
      "state": "Maharashtra",
      "lat": 16.705,
      "lon": 74.2433,
      "climate": "tropical_savanna"
    },
    {
      "id": "ajmer",
      "name": "Ajmer",
      "state": "Rajasthan",
      "lat": 26.4499,
      "lon": 74.6399,
      "climate": "semi_arid"
    },
    {
      "id": "akola",
      "name": "Akola",
      "state": "Maharashtra",
      "lat": 20.7002,
      "lon": 77.0082,
      "climate": "tropical_savanna"
    },
    {
      "id": "gulbarga",
      "name": "Gulbarga",
      "state": "Karnataka",
      "lat": 17.3297,
      "lon": 76.8343,
      "climate": "semi_arid",
      "aliases": [
        "kalaburagi"
      ]
    },
    {
      "id": "jamnagar",
      "name": "Jamnagar",
      "state": "Gujarat",
      "lat": 22.4707,
      "lon": 70.0577,
      "climate": "semi_arid"
    },
    {
      "id": "ujjain",
      "name": "Ujjain",
      "state": "Madhya Pradesh",
      "lat": 23.1765,
      "lon": 75.7885,
      "climate": "semi_arid"
    },
    {
      "id": "siliguri",
      "name": "Siliguri",
      "state": "West Bengal",
      "lat": 26.7271,
      "lon": 88.3953,
      "climate": "humid_subtropical"
    },
    {
      "id": "jhansi",
      "name": "Jhansi",
      "state": "Uttar Pradesh",
      "lat": 25.4484,
      "lon": 78.5685,
      "climate": "semi_arid"
    },
    {
      "id": "jammu",
      "name": "Jammu",
      "state": "Jammu and Kashmir",
      "lat": 32.7266,
      "lon": 74.857,
      "climate": "humid_subtropical"
    },
    {
      "id": "mangaluru",
      "name": "Mangaluru",
      "state": "Karnataka",
      "lat": 12.9141,
      "lon": 74.856,
      "climate": "tropical_wet",
      "aliases": [
        "mangalore"
      ]
    },
    {
      "id": "erode",
      "name": "Erode",
      "state": "Tamil Nadu",
      "lat": 11.341,
      "lon": 77.7172,
      "climate": "tropical_savanna"
    },
    {
      "id": "belagavi",
      "name": "Belagavi",
      "state": "Karnataka",
      "lat": 15.8497,
      "lon": 74.4977,
      "climate": "tropical_savanna",
      "aliases": [
        "belgaum"
      ]
    },
    {
      "id": "tirunelveli",
      "name": "Tirunelveli",
      "state": "Tamil Nadu",
      "lat": 8.7139,
      "lon": 77.7567,
      "climate": "tropical_savanna"
    },
    {
      "id": "gaya",
      "name": "Gaya",
      "state": "Bihar",
      "lat": 24.7969,
      "lon": 85.0002,
      "climate": "humid_subtropical"
    },
    {
      "id": "udaipur",
      "name": "Udaipur",
      "state": "Rajasthan",
      "lat": 24.5854,
      "lon": 73.7125,
      "climate": "semi_arid"
    },
    {
      "id": "tirupati",
      "name": "Tirupati",
      "state": "Andhra Pradesh",
      "lat": 13.6288,
      "lon": 79.4192,
      "climate": "tropical_savanna"
    },
    {
      "id": "davanagere",
      "name": "Davanagere",
      "state": "Karnataka",
      "lat": 14.4644,
      "lon": 75.9218,
      "climate": "tropical_savanna"
    },
    {
      "id": "kozhikode",
      "name": "Kozhikode",
      "state": "Kerala",
      "lat": 11.2588,
      "lon": 75.7804,
      "climate": "tropical_wet"
    },
    {
      "id": "kurnool",
      "name": "Kurnool",
      "state": "Andhra Pradesh",
      "lat": 15.8281,
      "lon": 78.0373,
      "climate": "semi_arid"
    },
    {
      "id": "bokaro",
      "name": "Bokaro",
      "state": "Jharkhand",
      "lat": 23.6693,
      "lon": 86.1511,
      "climate": "humid_subtropical"
    },
    {
      "id": "bellary",
      "name": "Bellary",
      "state": "Karnataka",
      "lat": 15.1394,
      "lon": 76.9214,
      "climate": "semi_arid"
    },
    {
      "id": "patiala",
      "name": "Patiala",
      "state": "Punjab",
      "lat": 30.3398,
      "lon": 76.3869,
      "climate": "semi_arid"
    },
    {
      "id": "agartala",
      "name": "Agartala",
      "state": "Tripura",
      "lat": 23.8315,
      "lon": 91.2868,
      "climate": "tropical_wet"
    },
    {
      "id": "bhagalpur",
      "name": "Bhagalpur",
      "state": "Bihar",
      "lat": 25.2425,
      "lon": 86.9842,
      "climate": "humid_subtropical"
    },
    {
      "id": "muzaffarnagar",
      "name": "Muzaffarnagar",
      "state": "Uttar Pradesh",
      "lat": 29.4727,
      "lon": 77.7085,
      "climate": "humid_subtropical"
    },
    {
      "id": "latur",
      "name": "Latur",
      "state": "Maharashtra",
      "lat": 18.4088,
      "lon": 76.5604,
      "climate": "semi_arid"
    },
    {
      "id": "dhule",
      "name": "Dhule",
      "state": "Maharashtra",
      "lat": 20.9042,
      "lon": 74.7749,
      "climate": "semi_arid"
    },
    {
      "id": "rohtak",
      "name": "Rohtak",
      "state": "Haryana",
      "lat": 28.8955,
      "lon": 76.6066,
      "climate": "semi_arid"
    },
    {
      "id": "korba",
      "name": "Korba",
      "state": "Chhattisgarh",
      "lat": 22.3595,
      "lon": 82.7501,
      "climate": "tropical_savanna"
    },
    {
      "id": "bhilwara",
      "name": "Bhilwara",
      "state": "Rajasthan",
      "lat": 25.3463,
      "lon": 74.6364,
      "climate": "semi_arid"
    },
    {
      "id": "brahmapur",
      "name": "Brahmapur",
      "state": "Odisha",
      "lat": 19.315,
      "lon": 84.7941,
      "climate": "tropical_wet",
      "aliases": [
        "berhampur"
      ]
    },
    {
      "id": "muzaffarpur",
      "name": "Muzaffarpur",
      "state": "Bihar",
      "lat": 26.1209,
      "lon": 85.3647,
      "climate": "humid_subtropical"
    },
    {
      "id": "mathura",
      "name": "Mathura",
      "state": "Uttar Pradesh",
      "lat": 27.4924,
      "lon": 77.6737,
      "climate": "semi_arid"
    },
    {
      "id": "kollam",
      "name": "Kollam",
      "state": "Kerala",
      "lat": 8.8932,
      "lon": 76.6141,
      "climate": "tropical_wet"
    },
    {
      "id": "bilaspur",
      "name": "Bilaspur",
      "state": "Chhattisgarh",
      "lat": 22.0797,
      "lon": 82.1409,
      "climate": "tropical_savanna"
    },
    {
      "id": "shahjahanpur",
      "name": "Shahjahanpur",
      "state": "Uttar Pradesh",
      "lat": 27.8815,
      "lon": 79.9119,
      "climate": "humid_subtropical"
    },
    {
      "id": "thrissur",
      "name": "Thrissur",
      "state": "Kerala",
      "lat": 10.5276,
      "lon": 76.2144,
      "climate": "tropical_wet"
    },
    {
      "id": "alwar",
      "name": "Alwar",
      "state": "Rajasthan",
      "lat": 27.553,
      "lon": 76.6346,
      "climate": "semi_arid"
    },
    {
      "id": "kakinada",
      "name": "Kakinada",
      "state": "Andhra Pradesh",
      "lat": 16.9891,
      "lon": 82.2475,
      "climate": "tropical_wet"
    },
    {
      "id": "nizamabad",
      "name": "Nizamabad",
      "state": "Telangana",
      "lat": 18.6725,
      "lon": 78.0941,
      "climate": "tropical_savanna"
    },
    {
      "id": "panipat",
      "name": "Panipat",
      "state": "Haryana",
      "lat": 29.3909,
      "lon": 76.9635,
      "climate": "semi_arid"
    },
    {
      "id": "darbhanga",
      "name": "Darbhanga",
      "state": "Bihar",
      "lat": 26.1542,
      "lon": 85.8918,
      "climate": "humid_subtropical"
    },
    {
      "id": "aizawl",
      "name": "Aizawl",
      "state": "Mizoram",
      "lat": 23.7271,
      "lon": 92.7176,
      "climate": "humid_subtropical"
    }
  ]
}